location,latitude,longitude
Manali,32.2396,77.1887
Shimla,31.1048,77.1734
Mussoorie,30.4598,78.0644
Nainital,29.3802,79.4636
Leh,34.1526,77.5771
Darjeeling,27.041,88.2627
Goa,15.2993,74.124
Jaipur,26.9124,75.7873
Munnar,10.0889,77.0595
Ooty,11.4102,76.695
